{
  "data_source": "Compiled from official IKON Pass and Epic Pass websites and resort websites",
  "last_updated": "2026-01-03",
  "resorts": [
    {
      "name": "Aspen Snowmass",
      "address": "Snowmass Village, CO 81615",
      "city": "Snowmass Village",
      "country": "United States",
      "access_type": "Unlimited",
      "latitude": 39.1903602,
      "longitude": -106.947666,
      "formatted_address": "Snowmass Village, CO 81615, USA",
      "id": "aspen-snowmass",
      "region": "Colorado",
      "pass": "IKON"
    },
    {
      "name": "Steamboat",
      "address": "2305 Mt Werner Cir, Steamboat Springs, CO 80487",
      "city": "Steamboat Springs",
      "country": "United States",
      "access_type": "Unlimited",
      "latitude": 40.4570979,
      "longitude": -106.8044718,
      "formatted_address": "2305 Mt Werner Cir, Steamboat Springs, CO 80487, USA",
      "id": "steamboat",
      "region": "Colorado",
      "pass": "IKON"
    },
    {
      "name": "Palisades Tahoe",
      "address": "1960 Olympic Valley Rd, Olympic Valley, CA 96146",
      "city": "Olympic Valley",
      "country": "United States",
      "access_type": "Unlimited",
      "latitude": 39.196849,
      "longitude": -120.2358066,
      "formatted_address": "1960 Olympic Vly Rd, Olympic Valley, CA 96146, USA",
      "id": "palisades-tahoe",
      "region": "California",
      "pass": "IKON"
    },
    {
      "name": "Mammoth Mountain",
      "address": "10001 Minaret Rd, Mammoth Lakes, CA 93546",
      "city": "Mammoth Lakes",
      "country": "United States",
      "access_type": "Unlimited",
      "latitude": 37.6511273,
      "longitude": -119.0267624,
      "formatted_address": "10001 Minaret Rd, Mammoth Lakes, CA 93546, USA",
      "id": "mammoth-mountain",
      "region": "California",
      "pass": "IKON"
    },
    {
      "name": "June Mountain",
      "address": "Mammoth Lakes, CA",
      "city": "Mammoth Lakes",
      "country": "United States",
      "access_type": "Unlimited",
      "latitude": 37.648546,
      "longitude": -118.972079,
      "formatted_address": "Mammoth Lakes, CA 93546, USA",
      "id": "june-mountain",
      "region": "California",
      "pass": "IKON"
    },
    {
      "name": "Big Bear Mountain Resort",
      "address": "Big Bear Lake, CA",
      "city": "Big Bear Lake",
      "country": "United States",
      "access_type": "Unlimited",
      "latitude": 34.2438963,
      "longitude": -116.9114215,
      "formatted_address": "Big Bear Lake, CA, USA",
      "id": "big-bear-mountain-resort",
      "region": "California",
      "pass": "IKON"
    },
    {
      "name": "Alta Ski Area",
      "address": "10010 Little Cottonwood Rd, Alta, UT 84092",
      "city": "Alta",
      "country": "United States",
      "access_type": "7 days",
      "latitude": 40.5892469,
      "longitude": -111.6416192,
      "formatted_address": "10010 Little Cottonwood Rd, Alta, UT 84092, USA",
      "id": "alta-ski-area",
      "region": "Utah",
      "pass": "IKON"
    },
    {
      "name": "Snowbird",
      "address": "Little Cottonwood Canyon, UT",
      "city": "Snowbird",
      "country": "United States",
      "access_type": "7 days",
      "latitude": 40.5724796,
      "longitude": -111.7732325,
      "formatted_address": "Little Cottonwood Canyon, Utah 84092, USA",
      "id": "snowbird",
      "region": "Utah",
      "pass": "IKON"
    },
    {
      "name": "Deer Valley Resort",
      "address": "2250 Deer Valley Dr S, Park City, UT 84060",
      "city": "Park City",
      "country": "United States",
      "access_type": "7 days",
      "latitude": 40.62257899999999,
      "longitude": -111.4850846,
      "formatted_address": "2250 Deer Valley Dr S, Park City, UT 84060, USA",
      "id": "deer-valley-resort",
      "region": "Utah",
      "pass": "IKON"
    },
    {
      "name": "Solitude Mountain Resort",
      "address": "12000 Big Cottonwood Canyon Rd, Solitude, UT 84121",
      "city": "Solitude",
      "country": "United States",
      "access_type": "Unlimited",
      "latitude": 40.6187086,
      "longitude": -111.5924759,
      "formatted_address": "12000 Big Cottonwood Canyon Rd, Solitude, UT 84121, USA",
      "id": "solitude-mountain-resort",
      "region": "Utah",
      "pass": "IKON"
    },
    {
      "name": "Brighton Resort",
      "address": "Big Cottonwood Canyon, UT",
      "city": "Brighton",
      "country": "United States",
      "access_type": "7 days",
      "latitude": 40.637269,
      "longitude": -111.6330126,
      "formatted_address": "Big Cottonwood Canyon, Brighton, UT 84121, USA",
      "id": "brighton-resort",
      "region": "Utah",
      "pass": "IKON"
    },
    {
      "name": "Snowbasin",
      "address": "Huntsville, UT",
      "city": "Huntsville",
      "country": "United States",
      "access_type": "7 days",
      "latitude": 41.2607744,
      "longitude": -111.7699379,
      "formatted_address": "Huntsville, UT 84317, USA",
      "id": "snowbasin",
      "region": "Utah",
      "pass": "IKON"
    },
    {
      "name": "Jackson Hole Mountain Resort",
      "address": "3395 Cody Ln, Teton Village, WY 83025",
      "city": "Teton Village",
      "country": "United States",
      "access_type": "7 days",
      "latitude": 43.5876318,
      "longitude": -110.827952,
      "formatted_address": "3395 Cody Ln, Teton Village, WY 83025, USA",
      "id": "jackson-hole-mountain-resort",
      "region": "Wyoming",
      "pass": "IKON"
    },
    {
      "name": "Big Sky Resort",
      "address": "50 Big Sky Resort Rd, Big Sky, MT 59716",
      "city": "Big Sky",
      "country": "United States",
      "access_type": "7 days",
      "latitude": 45.284358,
      "longitude": -111.4008347,
      "formatted_address": "50 Big Sky Resort Rd, Big Sky, MT 59716, USA",
      "id": "big-sky-resort",
      "region": "Montana",
      "pass": "IKON"
    },
    {
      "name": "Crystal Mountain",
      "address": "33914 Crystal Mountain Blvd, Crystal Mountain, WA 98022",
      "city": "Crystal Mountain",
      "country": "United States",
      "access_type": "Unlimited",
      "latitude": 46.9352963,
      "longitude": -121.4747533,
      "formatted_address": "Chinook Express, 33914 Crystal Mountain Blvd, Enumclaw, WA 98022, USA",
      "id": "crystal-mountain",
      "region": "Washington",
      "pass": "IKON"
    },
    {
      "name": "The Summit at Snoqualmie",
      "address": "Snoqualmie Pass, WA",
      "city": "Snoqualmie Pass",
      "country": "United States",
      "access_type": "7 days",
      "latitude": 47.3923346,
      "longitude": -121.4000942,
      "formatted_address": "Snoqualmie Pass, WA, USA",
      "id": "the-summit-at-snoqualmie",
      "region": "Washington",
      "pass": "IKON"
    },
    {
      "name": "Mt. Bachelor",
      "address": "Bend, OR",
      "city": "Bend",
      "country": "United States",
      "access_type": "7 days",
      "latitude": 44.0581728,
      "longitude": -121.3153096,
      "formatted_address": "Bend, OR, USA",
      "id": "mt-bachelor",
      "region": "Oregon",
      "pass": "IKON"
    },
    {
      "name": "Sun Valley",
      "address": "Ketchum, ID",
      "city": "Ketchum",
      "country": "United States",
      "access_type": "7 days",
      "latitude": 43.6807402,
      "longitude": -114.3636619,
      "formatted_address": "Ketchum, ID, USA",
      "id": "sun-valley",
      "region": "Idaho",
      "pass": "IKON"
    },
    {
      "name": "Schweitzer",
      "address": "Sandpoint, ID",
      "city": "Sandpoint",
      "country": "United States",
      "access_type": "7 days",
      "latitude": 48.276577,
      "longitude": -116.553465,
      "formatted_address": "Sandpoint, ID 83864, USA",
      "id": "schweitzer",
      "region": "Idaho",
      "pass": "IKON"
    },
    {
      "name": "Banff Sunshine",
      "address": "1 Sunshine Village Access Rd, Seebe, AB T0L 0C0",
      "city": "Banff",
      "country": "Canada",
      "access_type": "7 days (SkiBig3)",
      "latitude": 51.1150943,
      "longitude": -115.7640767,
      "formatted_address": "1 Sunshine Village Access Rd, Seebe, AB T0L 0C0, Canada",
      "id": "banff-sunshine",
      "region": "Alberta",
      "pass": "IKON"
    },
    {
      "name": "Lake Louise Ski Resort",
      "address": "Lake Louise, AB T0L 1E0",
      "city": "Lake Louise",
      "country": "Canada",
      "access_type": "7 days (SkiBig3)",
      "latitude": 51.4253705,
      "longitude": -116.1772552,
      "formatted_address": "Lake Louise, AB T0L 1E0, Canada",
      "id": "lake-louise-ski-resort",
      "region": "Alberta",
      "pass": "IKON"
    },
    {
      "name": "Mt. Norquay",
      "address": "2 Mt Norquay Rd, Banff, AB T1L 1B4",
      "city": "Banff",
      "country": "Canada",
      "access_type": "7 days (SkiBig3)",
      "latitude": 51.203212,
      "longitude": -115.598599,
      "formatted_address": "2 Mt Norquay Rd, Banff, AB T1L 1B4, Canada",
      "id": "mt-norquay",
      "region": "Alberta",
      "pass": "IKON"
    },
    {
      "name": "Revelstoke Mountain Resort",
      "address": "2950 Camozzi Rd, Revelstoke, BC V0E 2S0",
      "city": "Revelstoke",
      "country": "Canada",
      "access_type": "7 days",
      "latitude": 50.95838579999999,
      "longitude": -118.163078,
      "formatted_address": "2950 Camozzi Rd, Revelstoke, BC V0E 2S1, Canada",
      "id": "revelstoke-mountain-resort",
      "region": "British Columbia",
      "pass": "IKON"
    },
    {
      "name": "RED Mountain",
      "address": "Rossland, BC",
      "city": "Rossland",
      "country": "Canada",
      "access_type": "7 days",
      "latitude": 49.0781415,
      "longitude": -117.8000037,
      "formatted_address": "Rossland, BC V0G 1Y0, Canada",
      "id": "red-mountain",
      "region": "British Columbia",
      "pass": "IKON"
    },
    {
      "name": "Cypress Mountain",
      "address": "West Vancouver, BC",
      "city": "West Vancouver",
      "country": "Canada",
      "access_type": "7 days",
      "latitude": 49.3286251,
      "longitude": -123.1601981,
      "formatted_address": "West Vancouver, BC, Canada",
      "id": "cypress-mountain",
      "region": "British Columbia",
      "pass": "IKON"
    },
    {
      "name": "Panorama Mountain Resort",
      "address": "Panorama, BC",
      "city": "Panorama",
      "country": "Canada",
      "access_type": "7 days",
      "latitude": 50.45837059999999,
      "longitude": -116.238466,
      "formatted_address": "Panorama, BC V0A 1T0, Canada",
      "id": "panorama-mountain-resort",
      "region": "British Columbia",
      "pass": "IKON"
    },
    {
      "name": "Sun Peaks Resort",
      "address": "Sun Peaks, BC V0E 5N0",
      "city": "Sun Peaks",
      "country": "Canada",
      "access_type": "7 days",
      "latitude": 50.8815578,
      "longitude": -119.8972041,
      "formatted_address": "Sun Peaks, BC V0E, Canada",
      "id": "sun-peaks-resort",
      "region": "British Columbia",
      "pass": "IKON"
    },
    {
      "name": "Grouse Mountain",
      "address": "North Vancouver, BC",
      "city": "North Vancouver",
      "country": "Canada",
      "access_type": "Bonus (2 days)",
      "latitude": 49.3199816,
      "longitude": -123.0724139,
      "formatted_address": "North Vancouver, BC, Canada",
      "id": "grouse-mountain",
      "region": "British Columbia",
      "pass": "IKON"
    },
    {
      "name": "SilverStar Mountain Resort",
      "address": "Vernon, BC",
      "city": "Vernon",
      "country": "Canada",
      "access_type": "Bonus (2 days)",
      "latitude": 50.2670137,
      "longitude": -119.2720107,
      "formatted_address": "Vernon, BC, Canada",
      "id": "silverstar-mountain-resort",
      "region": "British Columbia",
      "pass": "IKON"
    },
    {
      "name": "Vail",
      "address": "450 East Lionshead Circle, Vail, CO 81657",
      "city": "Vail",
      "state": "CO",
      "country": "United States",
      "access_type": "Unlimited",
      "id": "vail",
      "region": "Colorado",
      "latitude": 39.6438621,
      "longitude": -106.3864384,
      "formatted_address": "450 E Lionshead Cir, Vail, CO 81657, USA",
      "pass": "EPIC"
    },
    {
      "name": "Beaver Creek",
      "address": "210 Beaver Creek Plaza, Beaver Creek, CO 81620",
      "city": "Beaver Creek",
      "state": "CO",
      "country": "United States",
      "access_type": "Unlimited",
      "id": "beaver-creek",
      "region": "Colorado",
      "latitude": 39.6042863,
      "longitude": -106.5167109,
      "formatted_address": "210 Beaver Creek Plaza, Beaver Creek, CO 81620, USA",
      "pass": "EPIC"
    },
    {
      "name": "Crested Butte",
      "address": "12 Snowmass Rd, Mt Crested Butte, CO 81225",
      "city": "Mt Crested Butte",
      "state": "CO",
      "country": "United States",
      "access_type": "Unlimited",
      "id": "crested-butte",
      "region": "Colorado",
      "latitude": 38.916277,
      "longitude": -106.961806,
      "formatted_address": "12 Snowmass Rd, Crested Butte, CO 81225, USA",
      "pass": "EPIC"
    },
    {
      "name": "Telluride",
      "address": "565 Mountain Village Blvd, Telluride, CO 81435",
      "city": "Telluride",
      "state": "CO",
      "country": "United States",
      "access_type": "Unlimited",
      "id": "telluride",
      "region": "Colorado",
      "latitude": 37.9361136,
      "longitude": -107.8454403,
      "formatted_address": "565 Mountain Village Blvd, Telluride, CO 81435, USA",
      "pass": "EPIC"
    },
    {
      "name": "Park City Mountain",
      "address": "1345 Lowell Ave, Park City, UT 84060",
      "city": "Park City",
      "state": "UT",
      "country": "United States",
      "access_type": "Unlimited",
      "id": "park-city-mountain",
      "region": "Utah",
      "latitude": 40.6515528,
      "longitude": -111.5078556,
      "formatted_address": "1345 Lowell Ave, Park City, UT 84060, USA",
      "pass": "EPIC"
    },
    {
      "name": "Heavenly",
      "address": "3860 Saddle Rd, South Lake Tahoe, CA 96150",
      "city": "South Lake Tahoe",
      "state": "CA",
      "country": "United States",
      "access_type": "Unlimited",
      "id": "heavenly",
      "region": "California",
      "latitude": 38.9315153,
      "longitude": -119.9359329,
      "formatted_address": "3860 Saddle Rd, South Lake Tahoe, CA 96150, USA",
      "pass": "EPIC"
    },
    {
      "name": "Northstar California",
      "address": "5001 Northstar Dr, Truckee, CA 96161",
      "city": "Truckee",
      "state": "CA",
      "country": "United States",
      "access_type": "Unlimited",
      "id": "northstar-california",
      "region": "California",
      "latitude": 39.2750593,
      "longitude": -120.1206308,
      "formatted_address": "5001 Northstar Dr, Truckee, CA 96161, USA",
      "pass": "EPIC"
    },
    {
      "name": "Kirkwood",
      "address": "1501 Kirkwood Meadows Dr, Kirkwood, CA 95646",
      "city": "Kirkwood",
      "state": "CA",
      "country": "United States",
      "access_type": "Unlimited",
      "id": "kirkwood",
      "region": "California",
      "latitude": 38.6847224,
      "longitude": -120.0651546,
      "formatted_address": "1501 Kirkwood Meadows Dr, Kirkwood, CA 95646, USA",
      "pass": "EPIC"
    },
    {
      "name": "Stevens Pass",
      "address": "93001 US-2, Skykomish, WA 98288",
      "city": "Skykomish",
      "state": "WA",
      "country": "United States",
      "access_type": "Unlimited",
      "id": "stevens-pass",
      "region": "Washington",
      "latitude": 47.7118183,
      "longitude": -121.3599452,
      "formatted_address": "US-2, Skykomish, WA, USA",
      "pass": "EPIC"
    },
    {
      "name": "Whistler Blackcomb",
      "address": "4545 Blackcomb Way, Whistler, BC V8E 0X9",
      "city": "Whistler",
      "province": "BC",
      "country": "Canada",
      "access_type": "Unlimited",
      "id": "whistler-blackcomb",
      "region": "British Columbia",
      "latitude": 50.114946,
      "longitude": -122.9485933,
      "formatted_address": "4545 Blackcomb Wy, Whistler, BC V0N 1B4, Canada",
      "pass": "EPIC"
    },
    {
      "name": "Fernie Alpine Resort",
      "address": "5339 Ski Hill Rd, Fernie, BC V0B 1M6",
      "city": "Fernie",
      "province": "BC",
      "country": "Canada",
      "access_type": "7 days",
      "id": "fernie-alpine-resort",
      "region": "British Columbia",
      "latitude": 49.4682228,
      "longitude": -115.0661103,
      "formatted_address": "Hill Rd, East Kootenay, BC V0B 1M4, Canada",
      "pass": "EPIC"
    },
    {
      "name": "Kicking Horse",
      "address": "1500 Kicking Horse Trail, Golden, BC V0A 1H0",
      "city": "Golden",
      "province": "BC",
      "country": "Canada",
      "access_type": "7 days",
      "id": "kicking-horse",
      "region": "British Columbia",
      "latitude": 51.2987902,
      "longitude": -117.0483909,
      "formatted_address": "1500 Kicking Horse Trl, Golden, BC V0A 1H0, Canada",
      "pass": "EPIC"
    },
    {
      "name": "Kimberley Alpine Resort",
      "address": "301 North Star Blvd, Kimberley, BC V1A 2Y5",
      "city": "Kimberley",
      "province": "BC",
      "country": "Canada",
      "access_type": "7 days",
      "id": "kimberley-alpine-resort",
      "region": "British Columbia",
      "latitude": 49.68897579999999,
      "longitude": -116.0045997,
      "formatted_address": "301 N Star Blvd, Kimberley, BC V1A 2Y9, Canada",
      "pass": "EPIC"
    },
    {
      "name": "Nakiska",
      "address": "2 Mt Allan Dr, Kananaskis, AB T0L 2H0",
      "city": "Kananaskis",
      "province": "AB",
      "country": "Canada",
      "access_type": "7 days",
      "id": "nakiska",
      "region": "Alberta",
      "latitude": 50.942515,
      "longitude": -115.1516961,
      "formatted_address": "2 Mt Allan Dr, Kananaskis, AB T0L 2H0, Canada",
      "pass": "EPIC"
    },
    {
      "name": "Monarch Mountain",
      "address": "23715 US-50, Salida, CO 81201",
      "city": "Salida",
      "country": "United States",
      "region": "Colorado",
      "id": "monarch-mountain",
      "latitude": 38.51231,
      "longitude": -106.331911,
      "formatted_address": "US-50, United States",
      "pass": "INDEPENDENT"
    },
    {
      "name": "Wolf Creek Ski Area",
      "address": "Wolf Creek Pass Hwy 160, Pagosa Springs, CO 81147",
      "city": "Pagosa Springs",
      "country": "United States",
      "region": "Colorado",
      "id": "wolf-creek-ski-area",
      "latitude": 37.27632759999999,
      "longitude": -106.9860848,
      "formatted_address": "1742 E Hwy 160, Pagosa Springs, CO 81147, USA",
      "pass": "INDEPENDENT"
    },
    {
      "name": "Powderhorn Mountain Resort",
      "address": "48338 Powderhorn Rd, Mesa, CO 81643",
      "city": "Mesa",
      "country": "United States",
      "region": "Colorado",
      "id": "powderhorn-mountain-resort",
      "latitude": 39.0694622,
      "longitude": -108.150761,
      "formatted_address": "48338 Powderhorn Rd, Mesa, CO 81643, USA",
      "pass": "INDEPENDENT"
    },
    {
      "name": "Bogus Basin",
      "address": "2600 N Bogus Basin Road, Boise, ID 83702",
      "city": "Boise",
      "country": "United States",
      "region": "Idaho",
      "id": "bogus-basin",
      "latitude": 43.6433554,
      "longitude": -116.2058718,
      "formatted_address": "2600 N Bogus Basin Rd, Boise, ID 83702, USA",
      "pass": "INDEPENDENT"
    },
    {
      "name": "Brundage Mountain",
      "address": "3890 Goose Lake Rd, McCall, ID 83638",
      "city": "McCall",
      "country": "United States",
      "region": "Idaho",
      "id": "brundage-mountain",
      "latitude": 45.0053108,
      "longitude": -116.1544026,
      "formatted_address": "Brundage Mountain Lodge, 3890 Goose Lake Rd, McCall, ID 83638, USA",
      "pass": "INDEPENDENT"
    },
    {
      "name": "Magic Mountain",
      "address": "Rock Creek Road, Hansen, ID 83334",
      "city": "Hansen",
      "country": "United States",
      "region": "Idaho",
      "id": "magic-mountain",
      "latitude": 42.5333083,
      "longitude": -114.3059348,
      "formatted_address": "Rock Creek Rd, Hansen, ID, USA",
      "pass": "INDEPENDENT"
    },
    {
      "name": "Lookout Pass",
      "address": "I-90 Exit 0, Mullan, ID 83846",
      "city": "Mullan",
      "country": "United States",
      "region": "Idaho",
      "id": "lookout-pass",
      "latitude": 47.4681387,
      "longitude": -115.7981784,
      "formatted_address": "I-90, Mullan, ID, USA",
      "pass": "INDEPENDENT"
    },
    {
      "name": "Whitefish Mountain Resort",
      "address": "3889 Big Mountain Rd, Whitefish, MT 59937",
      "city": "Whitefish",
      "country": "United States",
      "region": "Montana",
      "id": "whitefish-mountain-resort",
      "latitude": 48.4831223,
      "longitude": -114.3581754,
      "formatted_address": "3889 Big Mountain Rd, Whitefish, MT 59937, USA",
      "pass": "INDEPENDENT"
    },
    {
      "name": "Blacktail Mountain",
      "address": "13990 Blacktail Rd, Lakeside, MT 59922",
      "city": "Lakeside",
      "country": "United States",
      "region": "Montana",
      "id": "blacktail-mountain",
      "latitude": 48.01484139999999,
      "longitude": -114.3695821,
      "formatted_address": "13990 Blacktail Rd, Lakeside, MT 59922, USA",
      "pass": "INDEPENDENT"
    },
    {
      "name": "Lost Trail Powder Mountain",
      "address": "Top of Lost Trail Pass, Sula, MT 59871",
      "city": "Sula",
      "country": "United States",
      "region": "Montana",
      "id": "lost-trail-powder-mountain",
      "latitude": 45.6938088,
      "longitude": -113.9481328,
      "formatted_address": "Lost Trail Pass, Montana 59871, USA",
      "pass": "INDEPENDENT"
    },
    {
      "name": "Discovery Ski Area",
      "address": "180 Discovery Basin Rd, Anaconda, MT 59711",
      "city": "Anaconda",
      "country": "United States",
      "region": "Montana",
      "id": "discovery-ski-area",
      "latitude": 46.2496255,
      "longitude": -113.2384358,
      "formatted_address": "180 Discovery Basin Rd, Anaconda, MT 59711, USA",
      "pass": "INDEPENDENT"
    },
    {
      "name": "Showdown Montana",
      "address": "2850 US HWY 89 South, Neihart, MT 59465",
      "city": "Neihart",
      "country": "United States",
      "region": "Montana",
      "id": "showdown-montana",
      "latitude": 46.8384109,
      "longitude": -110.7001329,
      "formatted_address": "2850 US-89, Neihart, MT 59465, USA",
      "pass": "INDEPENDENT"
    },
    {
      "name": "Maverick Mountain",
      "address": "1600 Maverick Mountain Road, Polaris, MT 59746",
      "city": "Polaris",
      "country": "United States",
      "region": "Montana",
      "id": "maverick-mountain",
      "latitude": 45.37005000000001,
      "longitude": -113.1190489,
      "formatted_address": "Polaris, MT 59746, USA",
      "pass": "INDEPENDENT"
    },
    {
      "name": "Turner Mountain",
      "address": "Pipe Creek Rd, Libby, MT 59923",
      "city": "Libby",
      "country": "United States",
      "region": "Montana",
      "id": "turner-mountain",
      "latitude": 48.406166,
      "longitude": -115.5514781,
      "formatted_address": "Pipe Creek Rd, Libby, MT, USA",
      "pass": "INDEPENDENT"
    },
    {
      "name": "Great Divide",
      "address": "7385 Belmont Dr, Marysville, MT 59640",
      "city": "Marysville",
      "country": "United States",
      "region": "Montana",
      "id": "great-divide",
      "latitude": 46.7497,
      "longitude": -112.3043,
      "formatted_address": "7385 Belmont Dr, Marysville, MT 59640, USA",
      "pass": "INDEPENDENT"
    },
    {
      "name": "Diamond Peak",
      "address": "1210 Ski Way, Incline Village, NV 89451",
      "city": "Incline Village",
      "country": "United States",
      "region": "Nevada",
      "id": "diamond-peak",
      "latitude": 39.25376869999999,
      "longitude": -119.923763,
      "formatted_address": "1210 Ski Way, Incline Village, NV 89451, USA",
      "pass": "INDEPENDENT"
    },
    {
      "name": "Mt. Baker",
      "address": "10091 Mt. Baker Highway, Glacier, WA 98244",
      "city": "Glacier",
      "country": "United States",
      "region": "Washington",
      "id": "mt-baker",
      "latitude": 48.8883087,
      "longitude": -121.9381955,
      "formatted_address": "10091 Mt Baker Hwy, Deming, WA 98244, USA",
      "pass": "INDEPENDENT"
    },
    {
      "name": "White Pass",
      "address": "48935 US Highway 12, Naches, WA 98937",
      "city": "Naches",
      "country": "United States",
      "region": "Washington",
      "id": "white-pass-wa",
      "latitude": 46.6345,
      "longitude": -121.3858,
      "formatted_address": "48935 US Highway 12, Naches, WA 98937, USA",
      "pass": "INDEPENDENT"
    },
    {
      "name": "49 Degrees North",
      "address": "3311 Flowery Trail Rd, Chewelah, WA 99109",
      "city": "Chewelah",
      "country": "United States",
      "region": "Washington",
      "id": "49-degrees-north",
      "latitude": 48.3011017,
      "longitude": -117.5629468,
      "formatted_address": "3311 Flowery Trail Rd, Chewelah, WA 99109, USA",
      "pass": "INDEPENDENT"
    },
    {
      "name": "Hurricane Ridge",
      "address": "Hurricane Ridge Rd, Port Angeles, WA 98362",
      "city": "Port Angeles",
      "country": "United States",
      "region": "Washington",
      "id": "hurricane-ridge",
      "latitude": 48.0939324,
      "longitude": -123.4294994,
      "formatted_address": "Hurricane Ridge Rd, Port Angeles, WA, USA",
      "pass": "INDEPENDENT"
    },
    {
      "name": "Mission Ridge",
      "address": "7500 Mission Ridge Rd, Wenatchee, WA 98801",
      "city": "Wenatchee",
      "country": "United States",
      "region": "Washington",
      "id": "mission-ridge",
      "latitude": 47.2924512,
      "longitude": -120.3999216,
      "formatted_address": "7500 Mission Ridge Rd, Wenatchee, WA 98801, USA",
      "pass": "INDEPENDENT"
    },
    {
      "name": "Ski Bluewood",
      "address": "2000 N Touchet Rd, Dayton, WA 99328",
      "city": "Dayton",
      "country": "United States",
      "region": "Washington",
      "id": "ski-bluewood",
      "latitude": 46.0917252,
      "longitude": -117.8535458,
      "formatted_address": "2000 N Touchet Rd, Dayton, WA 99328, USA",
      "pass": "INDEPENDENT"
    },
    {
      "name": "Leavenworth Ski Hill",
      "address": "10701 Ski Hill Dr, Leavenworth, WA 98826",
      "city": "Leavenworth",
      "country": "United States",
      "region": "Washington",
      "id": "leavenworth-ski-hill",
      "latitude": 47.61415820000001,
      "longitude": -120.6684897,
      "formatted_address": "10701 Ski Hill Dr, Leavenworth, WA 98826, USA",
      "pass": "INDEPENDENT"
    },
    {
      "name": "Loup Loup Ski Bowl",
      "address": "97 FS 4200 100 Road, Okanogan, WA 98840",
      "city": "Okanogan",
      "country": "United States",
      "region": "Washington",
      "id": "loup-loup-ski-bowl",
      "latitude": 48.3943363,
      "longitude": -119.9109955,
      "formatted_address": "4200 100 Road, Okanogan, WA 98840, USA",
      "pass": "INDEPENDENT"
    },
    {
      "name": "Mt. Spokane",
      "address": "29500 N Mt Spokane Park Dr, Mead, WA 99021",
      "city": "Mead",
      "country": "United States",
      "region": "Washington",
      "id": "mt-spokane",
      "latitude": 47.9213901,
      "longitude": -117.0964754,
      "formatted_address": "29500 N Mt Spokane Park Dr, Mead, WA 99021, USA",
      "pass": "INDEPENDENT"
    },
    {
      "name": "Mt. Hood Meadows",
      "address": "14040 Highway 35, Mount Hood, OR 97041",
      "city": "Mount Hood",
      "country": "United States",
      "region": "Oregon",
      "id": "mt-hood-meadows",
      "latitude": 45.3306116,
      "longitude": -121.6633566,
      "formatted_address": "Main Parking Lot, 14040 OR-35, Mt Hood, OR 97041, USA",
      "pass": "INDEPENDENT"
    },
    {
      "name": "Timberline Lodge",
      "address": "27500 E Timberline Rd, Government Camp, OR 97028",
      "city": "Government Camp",
      "country": "United States",
      "region": "Oregon",
      "id": "timberline-lodge",
      "latitude": 45.33042830000001,
      "longitude": -121.7101257,
      "formatted_address": "27500 W Leg Rd, Government Camp, OR 97028, USA",
      "pass": "INDEPENDENT"
    },
    {
      "name": "Mt. Hood Ski Bowl",
      "address": "87000 E Highway 26, Government Camp, OR 97028",
      "city": "Government Camp",
      "country": "United States",
      "region": "Oregon",
      "id": "mt-hood-ski-bowl",
      "latitude": 45.3019089,
      "longitude": -121.7732002,
      "formatted_address": "87000 US-26, Government Camp, OR 97028, USA",
      "pass": "INDEPENDENT"
    },
    {
      "name": "Hoodoo",
      "address": "27400 Big Lake Rd, Sisters, OR 97759",
      "city": "Sisters",
      "country": "United States",
      "region": "Oregon",
      "id": "hoodoo",
      "latitude": 44.3179046,
      "longitude": -121.4756447,
      "formatted_address": "Lake Dr, Oregon 97759, USA",
      "pass": "INDEPENDENT"
    },
    {
      "name": "Cooper Spur",
      "address": "10755 Cooper Spur Rd, Mount Hood, OR 97041",
      "city": "Mount Hood",
      "country": "United States",
      "region": "Oregon",
      "id": "cooper-spur",
      "latitude": 45.425642,
      "longitude": -121.5908604,
      "formatted_address": "10755 Cooper Spur Rd, Mt Hood, OR 97041, USA",
      "pass": "INDEPENDENT"
    },
    {
      "name": "Mt. Ashland",
      "address": "11 Mt Ashland Ski Rd, Ashland, OR 97520",
      "city": "Ashland",
      "country": "United States",
      "region": "Oregon",
      "id": "mt-ashland",
      "latitude": 42.0817168,
      "longitude": -122.7047765,
      "formatted_address": "11 Mt Ashland Ski Rd, Ashland, OR 97520, USA",
      "pass": "INDEPENDENT"
    },
    {
      "name": "Whitewater Mountain Resort",
      "address": "Whitewater Road, Nelson, BC V1L 5P7",
      "city": "Nelson",
      "country": "Canada",
      "region": "British Columbia",
      "id": "whitewater-mountain-resort",
      "latitude": 49.4939788,
      "longitude": -117.2936022,
      "formatted_address": "602 Lake St, Nelson, BC V1L 4C8, Canada",
      "pass": "INDEPENDENT"
    },
    {
      "name": "Big White Ski Resort",
      "address": "5315 Big White Road, Kelowna, BC V1X 4K5",
      "city": "Kelowna",
      "country": "Canada",
      "region": "British Columbia",
      "id": "big-white-ski-resort",
      "latitude": 49.7587855,
      "longitude": -118.9898789,
      "formatted_address": "Big White Rd, British Columbia, Canada",
      "pass": "INDEPENDENT"
    },
    {
      "name": "Apex Mountain Resort",
      "address": "324 Strayhorse Rd, Hedley, BC V0X 1N6",
      "city": "Penticton",
      "country": "Canada",
      "region": "British Columbia",
      "id": "apex-mountain-resort",
      "latitude": 49.3878,
      "longitude": -119.904,
      "formatted_address": "324 Strayhorse Rd, Hedley, BC V0X 1N6, Canada",
      "pass": "INDEPENDENT"
    },
    {
      "name": "Castle Mountain Resort",
      "address": "End of Highway 774, Pincher Creek, AB T0K 1W0",
      "city": "Pincher Creek",
      "country": "Canada",
      "region": "Alberta",
      "id": "castle-mountain-resort",
      "latitude": 49.484885,
      "longitude": -113.9440351,
      "formatted_address": "Pincher Creek, AB T0K 1W0, Canada",
      "pass": "INDEPENDENT"
    },
    {
      "name": "Marmot Basin",
      "address": "1 Marmot Road, Jasper, AB T0E 1E0",
      "city": "Jasper",
      "country": "Canada",
      "region": "Alberta",
      "id": "marmot-basin",
      "latitude": 52.80391179999999,
      "longitude": -118.0905496,
      "formatted_address": "P4, 1 Marmot Rd, Jasper, AB T0E 1E0, Canada",
      "pass": "INDEPENDENT"
    },
    {
      "name": "Bridger Bowl",
      "address": "15795 Bridger Canyon Road, Bozeman, MT 59715",
      "city": "Bozeman",
      "country": "United States",
      "region": "Montana",
      "id": "bridger-bowl",
      "latitude": 45.8176261,
      "longitude": -110.897566,
      "formatted_address": "15795 Bridger Canyon Rd, Bozeman, MT 59715, USA",
      "pass": "INDEPENDENT"
    },
    {
      "name": "Brian Head",
      "address": "329 South Highway 143, Brian Head, UT 84719",
      "city": "Brian Head",
      "country": "United States",
      "region": "Utah",
      "id": "brian-head",
      "latitude": 37.6926111,
      "longitude": -112.8476104,
      "formatted_address": "329 UT-143, Brian Head, UT 84719, USA",
      "pass": "INDEPENDENT"
    },
    {
      "name": "Sundance Resort",
      "address": "8841 N Alpine Loop Rd, Sundance, UT 84604",
      "city": "Sundance",
      "country": "United States",
      "region": "Utah",
      "id": "sundance-resort",
      "latitude": 40.3893,
      "longitude": -111.5865,
      "formatted_address": "8841 N Alpine Loop Rd, Sundance, UT 84604, USA",
      "pass": "INDEPENDENT"
    },
    {
      "name": "Alyeska Resort",
      "address": "1000 Arlberg Avenue, Girdwood, AK 99587",
      "city": "Girdwood",
      "country": "United States",
      "region": "Alaska",
      "id": "alyeska-resort",
      "latitude": 60.97049509999999,
      "longitude": -149.0982566,
      "formatted_address": "1000 Arlberg Ave, Girdwood, AK 99587, USA",
      "pass": "INDEPENDENT"
    },
    {
      "name": "Mt. Shasta Ski Park",
      "address": "4500 Ski Park Hwy, McCloud, CA 96057",
      "city": "McCloud",
      "country": "United States",
      "region": "California",
      "id": "mt-shasta-ski-park",
      "latitude": 41.32104,
      "longitude": -122.2027062,
      "formatted_address": "4500 Ski Park Hwy, McCloud, CA 96057, USA",
      "pass": "INDEPENDENT"
    },
    {
      "name": "Sierra at Tahoe",
      "address": "1111 Sierra-at-Tahoe Road, Twin Bridges, CA 95735",
      "city": "Twin Bridges",
      "country": "United States",
      "region": "California",
      "id": "sierra-at-tahoe",
      "access_type": "7 days",
      "latitude": 38.8003366,
      "longitude": -120.0804267,
      "formatted_address": "1111 Sierra-At-Tahoe Rd, Twin Bridges, CA 95735, USA",
      "pass": "IKON"
    }
  ]
}